elevation,mindate,maxdate,latitude,name,datacoverage,id,elevationUnit,longitude,state
634.0,2005-06-22,2026-03-01,61.11,"ANCHORAGE HILLSIDE, AK US",1.0,GHCND:USS0049M22S,METERS,-149.67,AK
716.3,1979-09-30,2026-03-01,61.07,"INDIAN PASS, AK US",1.0,GHCND:USS0049M08S,METERS,-149.48,AK
1011.9,2008-07-16,2026-03-01,62.07,"CHISANA, AK US",1.0,GHCND:USS0042N01S,METERS,-142.05,AK
592.8,2002-10-01,2003-10-31,62.6125,"CHISTOCHINA 4 NNE, AK US",1.0,GHCND:USC00501821,METERS,-144.61556,AK
289.6,1999-04-01,1999-11-30,65.38444,"TATALINA RIVER, AK US",1.0,GHCND:USC00509038,METERS,-148.24861,AK
625.1,1975-11-08,1976-04-30,63.65,"MOUNT MCKINLEY NATIONAL PARK AIRPORT, AK US",1.0,GHCND:USC00506093,METERS,-148.8,AK
34.1,1958-07-01,1959-08-31,52.71667,"SHEMYA ISLAND, AK US",1.0,GHCND:USW00045714,METERS,174.1,AK
24.1,1951-07-20,1952-03-31,61.46667,"KNIK, AK US",1.0,GHCND:USC00504943,METERS,-149.71667,AK
45.7,1947-11-01,1949-01-31,61.08333,"KLATTS FARM, AK US",1.0,GHCND:USC00504887,METERS,-149.83148,AK
56.4,1944-06-01,1945-09-30,64.9333,"KOKRINES, AK US",1.0,GHCND:USC00505021,METERS,-154.6667,AK
187.7,1930-01-01,2026-03-01,33.56545,"BIRMINGHAM AIRPORT, AL US",1.0,GHCND:USW00013876,METERS,-86.7449,AL
202.7,2020-01-01,2026-02-27,34.51861,"DECATUR 5.0 SE, AL US",1.0,GHCND:US1ALMG0030,METERS,-86.92917,AL
177.1,2021-01-01,2021-09-11,33.9546981821047,"NAUVOO 5.0 ESE, AL US",1.0,GHCND:US1ALWK0008,METERS,-87.411463546097,AL
214.6,2015-03-31,2016-12-25,34.777898,"ATHENS 5.4 E, AL US",1.0,GHCND:US1ALLS0028,METERS,-86.864455,AL
185.9,2015-01-26,2015-12-28,34.125652,"HAMILTON 3.5 WSW, AL US",1.0,GHCND:US1ALMR0004,METERS,-88.040481,AL
143.9,2007-10-01,2011-02-24,33.2666,"ALABASTER 2.8 N, AL US",1.0,GHCND:US1ALSH0012,METERS,-86.821,AL
284.1,2007-11-01,2008-05-25,33.728073,"SPRINGVILLE 3.2 S, AL US",1.0,GHCND:US1ALSC0002,METERS,-86.47943,AL
272.5,2004-06-01,2005-06-30,34.28194,"HACKLEBURG, AL US",1.0,GHCND:USC00013610,METERS,-87.85444,AL
97.5,1995-05-01,1995-10-31,32.26667,"HATCHECHUBBEE, AL US",1.0,GHCND:USC00013722,METERS,-85.28333,AL
78.0,1949-12-01,1961-07-11,31.41667,"EVERGREEN INTERMEDIATE FIELD, AL US",1.0,GHCND:USW00013885,METERS,-87.03333,AL
136.7,1945-09-27,2026-03-01,35.33346,"FORT SMITH REGIONAL AIRPORT, AR US",1.0,GHCND:USW00013964,METERS,-94.36526,AR
224.0,2021-07-03,2021-10-20,36.3346,"FLIPPIN 4.0 N, AR US",1.0,GHCND:US1ARMR0018,METERS,-92.5845,AR
530.4,2014-10-06,2021-02-28,35.7214,"DENNARD 10 WSW, AR US",1.0,GHCND:USC00031935,METERS,-92.6962,AR
57.9,2006-09-01,2007-08-31,34.73528,"W G HUXTABLE PUMPING PLANT, AR US",1.0,GHCND:USC00037460,METERS,-90.64861,AR
177.1,1967-04-01,1975-03-31,35.38333,"BALD KNOB 5 N, AR US",1.0,GHCND:USC00030355,METERS,-91.56667,AR
228.9,1948-01-01,1948-06-18,35.5,"CULPEPPER, AR US",1.0,GHCND:USC00031756,METERS,-92.55,AR
171.9,1948-01-01,1977-03-31,35.0971,"BOONEVILLE 3 SSE, AR US",0.9998,GHCND:USC00030830,METERS,-93.9147,AR
265.5,2019-03-08,2023-03-14,35.446719,"HEBER SPRINGS 5.5 SE, AR US",0.9993,GHCND:US1ARCB0010,METERS,-91.96551,AR
130.1,2014-05-22,2021-06-18,34.536,"BENTON 10.9 WSW, AR US",0.9992,GHCND:US1ARSL0023,METERS,-92.76508,AR
76.4,1938-04-01,2026-03-01,34.72727,"LITTLE ROCK AIRPORT ADAMS FIELD, AR US",0.9991,GHCND:USW00013963,METERS,-92.2358,AR
380.4,2020-10-01,2026-02-27,33.294719,"PHOENIX 10.0 S, AZ US",1.0,GHCND:US1AZMR0586,METERS,-112.065222,AZ
1570.9,2020-07-12,2021-09-10,31.545184,"FORT HUACHUCA 1.5 WSW, AZ US",1.0,GHCND:US1AZCH0078,METERS,-110.372673,AZ
237.7,2010-09-25,2014-05-31,32.9649,"GILA BEND 3 ENE, AZ US",1.0,GHCND:USW00053176,METERS,-112.6697,AZ
57.0,2010-07-01,2012-03-27,32.57639,"SOMERTON, AZ US",1.0,GHCND:USC00028070,METERS,-114.64111,AZ
890.3,2010-01-01,2011-11-15,32.134211,"TUCSON 10.7 ESE, AZ US",1.0,GHCND:US1AZPM0125,METERS,-110.768369,AZ
1225.9,1965-04-08,1965-09-30,35.41667,"CHLORIDE, AZ US",1.0,GHCND:USC00021680,METERS,-114.2,AZ
277.7,2009-09-08,2019-02-24,33.3354516,"BUCKEYE 7.8 SE, AZ US",0.9997,GHCND:US1AZMR0041,METERS,-112.4870959,AZ
1948.6,2012-09-05,2026-03-01,34.86,"BAR M, AZ US",0.9996,GHCND:USS0011R13S,METERS,-111.61,AZ
2179.9,1999-11-01,2026-03-01,35.2302,"BELLEMONT WEATHER FORECAST OFFICE, AZ US",0.9996,GHCND:USC00020678,METERS,-111.8221,AZ
427.9,2010-03-02,2014-05-31,33.3471,"PHOENIX 7 S, AZ US",0.9994,GHCND:USW00053156,METERS,-112.0832,AZ
2814.2,1978-09-30,2026-03-01,38.44,"LOBDELL LAKE, CA US",1.0,GHCND:USS0019L17S,METERS,-119.37,CA
149.3,1937-10-01,2026-03-01,35.43424,"BAKERSFIELD AIRPORT, CA US",1.0,GHCND:USW00023155,METERS,-119.05524,CA
178.3,2021-02-06,2021-06-18,35.817251,"RICHGROVE 3.2 ENE, CA US",1.0,GHCND:US1CATL0027,METERS,-119.054458,CA
7.9,2009-01-01,2010-10-18,38.571499,"SACRAMENTO 0.6 ENE, CA US",1.0,GHCND:US1CASA0018,METERS,-121.457834,CA
110.0,1959-10-01,1977-06-30,35.06667,"NIPOMO 2 NW, CA US",1.0,GHCND:USC00046207,METERS,-120.5,CA
982.1,1959-06-01,1975-04-30,38.2,"HUNTERS DAM, CA US",1.0,GHCND:USC00044170,METERS,-120.36667,CA
132.6,1967-08-01,1972-11-30,37.08689,"BEN LOMOND NUMBER 4, CA US",1.0,GHCND:USC00040677,METERS,-122.08221,CA
1562.1,1971-05-10,1971-12-31,37.48333,"FISH CAMP, CA US",1.0,GHCND:USC00043069,METERS,-119.63333,CA
125.0,1948-07-01,1951-09-30,34.05,"LOS ANGELES 6TH MAIN, CA US",1.0,GHCND:USC00045111,METERS,-118.25,CA
18.0,1945-03-01,1946-02-28,32.83333,"HOLTVILLE NAAS, CA US",1.0,GHCND:USW00093103,METERS,-115.26667,CA
3200.4,1986-08-06,2026-03-01,37.75,"MOLAS LAKE, CO US",1.0,GHCND:USS0007M12S,METERS,-107.69,CO
2718.8,1990-09-30,2026-03-01,37.66,"CASCADE NUMBER 2, CO US",1.0,GHCND:USS0007M35S,METERS,-107.8,CO
1613.0,2024-03-14,2026-02-27,39.9907,"LAFAYETTE 0.7 WSW, CO US",1.0,GHCND:US1COBO0599,METERS,-105.1103,CO
2048.0,2005-11-01,2006-02-28,37.5243,"PRYOR 2.7 W, CO US",1.0,GHCND:US1COHF0020,METERS,-104.7697,CO
3413.8,1986-09-05,2026-03-01,37.48,"STUMP LAKES, CO US",0.9999,GHCND:USS0007M34S,METERS,-107.63,CO
3383.3,2011-09-20,2026-03-01,37.88,"WAGER GULCH, CO US",0.9998,GHCND:USS0007M37S,METERS,-107.36,CO
1920.2,1998-07-07,2026-02-28,39.9153,"DRAGON ROAD COLORADO, CO US",0.9996,GHCND:USR0000CDRA,METERS,-108.8875,CO
3048.0,1994-09-23,2026-03-01,37.43,"MANCOS, CO US",0.9994,GHCND:USS0008M02S,METERS,-108.17,CO
1339.0,1943-11-01,1951-02-28,37.31667,"SPRINGFIELD 8 SW, CO US",0.9989,GHCND:USC00056705,METERS,-102.71667,CO
1667.0,2004-01-31,2026-03-02,39.5572,"RIFLE 3 ENE, CO US",0.9979,GHCND:USC00057033,METERS,-107.7261,CO
65.8,2016-06-05,2017-06-03,41.437346,"UNCASVILLE OXOBOXO VALLEY 5.6 W, CT US",1.0,GHCND:US1CTNL0007,METERS,-72.232349,CT
109.7,1962-11-01,1965-10-05,41.9442,"WEST THOMPSON LAKE, CT US",1.0,GHCND:USC00066660,METERS,-71.9031,CT
139.9,1949-02-01,1950-11-30,41.76667,"NORTH KENT, CT US",1.0,GHCND:USC00065664,METERS,-73.43333,CT
310.9,1946-12-01,1949-01-31,41.73333,"WARREN, CT US",1.0,GHCND:USC00068835,METERS,-73.33333,CT
34.1,1950-08-01,1955-11-30,41.06667,"STAMFORD, CT US",0.9995,GHCND:USC00067969,METERS,-73.5,CT
93.0,2016-08-02,2026-02-26,41.584855,"NORWICH 2.5 NNE, CT US",0.9994,GHCND:US1CTNL0010,METERS,-72.076749,CT
72.2,2018-08-19,2026-02-27,41.5103,"MIDDLEFIELD 0.6 SE, CT US",0.9993,GHCND:US1CTMD0025,METERS,-72.705,CT
29.9,2018-04-12,2026-02-27,41.501067,"HIGGANUM 0.7 N, CT US",0.9993,GHCND:US1CTMD0023,METERS,-72.555951,CT
78.9,2016-05-30,2026-02-24,41.995532,"CENTRAL SOMERS 0.3 N, CT US",0.9992,GHCND:US1CTTL0015,METERS,-72.44127,CT
19.8,2018-04-14,2026-02-27,41.30129,"OLD LYME 3.4 ESE, CT US",0.999,GHCND:US1CTNL0038,METERS,-72.26666,CT
8.2,2022-09-01,2026-02-25,38.8965206,"WASHINGTON 2.2 ESE, DC US",1.0,GHCND:US1DCDC0040,METERS,-76.9769113,DC
70.1,1948-08-01,1977-12-31,38.93333,"U S SOLDIERS HOME DC, DC US",0.998,GHCND:USC00189035,METERS,-77.01667,DC
17.1,2006-05-01,2006-08-31,38.917137,"WASHINGTON 3.0 ENE, DC US",0.9919,GHCND:US1DCDC0001,METERS,-76.962607,DC
45.7,1948-08-01,2025-11-30,38.9385,"DALECARLIA RESERVOIR, DC US",0.9636,GHCND:USC00182325,METERS,-77.1134,DC
15.2,1948-08-01,2025-12-31,38.91329,"NATIONAL ARBORETUM DC, DC US",0.96,GHCND:USC00186350,METERS,-76.97009,DC
91.1,2006-05-01,2006-08-31,38.937668,"WASHINGTON 5.0 WNW, DC US",0.9024,GHCND:US1DCDC0003,METERS,-77.099101,DC
21.9,1851-03-21,1965-12-31,38.901111,"WASHINGTON DC WEATHER BUREAU CITY, DC US",0.8762,GHCND:USW00093725,METERS,-77.050278,DC
106.4,2011-06-15,2026-02-27,38.958091,"WASHINGTON 5.1 NW, DC US",0.8302,GHCND:US1DCDC0014,METERS,-77.08173,DC
25.0,2007-03-05,2007-09-17,38.8943,"WASHINGTON 1.2 SE, DC US",0.7259,GHCND:US1DCDC0007,METERS,-76.9982,DC
9.1,2015-03-20,2018-11-25,38.895768,"THE WHITE HOUSE, DC US",0.7209,GHCND:US1DCDC0019,METERS,-77.036975,DC
5.2,2021-09-29,2022-08-09,38.563731,"LAUREL 3.6 W, DE US",1.0,GHCND:US1DESS0081,METERS,-75.637844,DE
12.5,2015-08-01,2015-11-04,38.5312,"FRANKFORD, DE US",1.0,GHCND:USC00073500,METERS,-75.235,DE
12.2,2003-12-01,2004-06-30,39.29472,"SMYRNA 1 W, DE US",1.0,GHCND:USC00078508,METERS,-75.61944,DE
20.7,2009-09-19,2026-02-27,39.725585,"NEWPORT 2.4 WNW, DE US",0.9998,GHCND:US1DENC0010,METERS,-75.648791,DE
457.2,2002-11-02,2015-02-25,38.8333,"PRIME HOOK DELAWARE, DE US",0.9987,GHCND:USR0000DPRI,METERS,-75.3333,DE
4.9,2021-05-08,2026-03-02,38.72329,"BRIDGEVILLE 3 ESE, DE US",0.9972,GHCND:USC00071335,METERS,-75.55302,DE
33.8,2009-07-01,2026-02-26,39.624942,"NEWARK 3.9 SSW, DE US",0.997,GHCND:US1DENC0002,METERS,-75.786129,DE
9.1,2009-03-30,2026-02-27,38.618918,"SEAFORD 2.3 SSE, DE US",0.9964,GHCND:US1DESS0006,METERS,-75.598454,DE
14.9,2022-06-05,2026-02-27,38.841166,"GREENWOOD 4.6 WNW, DE US",0.9963,GHCND:US1DESS0085,METERS,-75.666295,DE
13.7,1946-09-01,1997-05-31,38.63333,"GEORGETOWN 5 SW, DE US",0.996,GHCND:USC00073570,METERS,-75.45,DE
34.1,1949-01-01,1949-10-30,28.55,"ORLANDO ARMY AIR FIELD, FL US",1.0,GHCND:USW00012824,METERS,-81.33333,FL
22.9,1903-07-01,1906-12-31,28.833333,"ORANGE HOME, FL US",1.0,GHCND:USC00086598,METERS,-81.983333,FL
13.4,2013-08-19,2026-02-26,27.80473,"RIVERVIEW 4.8 SSW, FL US",0.9998,GHCND:US1FLHB0098,METERS,-82.34099,FL
27.4,2005-11-01,2026-03-01,28.7991,"MOUNT PLYMOUTH 1 SSW, FL US",0.9996,GHCND:USC00087228,METERS,-81.5373,FL
17.1,1940-03-01,2026-02-28,30.39354,"TALLAHASSEE REGIONAL AIRPORT, FL US",0.999,GHCND:USW00093805,METERS,-84.35136,FL
21.9,2010-01-17,2026-02-27,30.568513,"GONZALEZ 2.1 E, FL US",0.9969,GHCND:US1FLES0015,METERS,-87.254739,FL
44.5,2024-03-02,2026-02-27,30.8593,"GRACEVILLE 7.0 S, FL US",0.9945,GHCND:US1FLJK0007,METERS,-85.5199,FL
2.1,2007-09-28,2026-02-26,27.885885,"TAMPA 5.1 S, FL US",0.9941,GHCND:US1FLHB0010,METERS,-82.489524,FL
4.3,2014-07-01,2026-02-27,26.550808,"BOYNTON BEACH 6.5 WNW, FL US",0.9939,GHCND:US1FLPB0072,METERS,-80.182528,FL
15.5,2007-09-25,2023-10-16,28.08232,"CITRUS PARK 1.3 ENE, FL US",0.993,GHCND:US1FLHB0005,METERS,-82.549328,FL
264.0,2009-02-27,2012-10-03,33.28608,"GRIFFIN 4.3 NW, GA US",1.0,GHCND:US1GASP0004,METERS,-84.32376,GA
86.0,1956-01-01,1964-06-30,30.83333,"THOMASVILLE, GA US",1.0,GHCND:USW00093861,METERS,-83.98333,GA
228.6,1948-08-01,1951-09-30,33.8731,"WATKINSVILLE ARS, GA US",1.0,GHCND:USC00099169,METERS,-83.4361,GA
92.0,1941-10-21,1945-12-31,34.7,"CAMP WHEELER, GA US",1.0,GHCND:USC00091520,METERS,-83.633333,GA
76.2,1937-02-01,1938-04-30,32.066667,"MCRAE, GA US",1.0,GHCND:USC00095740,METERS,-82.9,GA
239.0,1944-06-01,2026-03-01,33.94773,"ATHENS BEN EPPS AIRPORT, GA US",0.9998,GHCND:USW00013873,METERS,-83.32736,GA
361.8,2016-01-01,2025-07-18,34.165947004121,"CUMMING 3.1 SSE, GA US",0.9994,GHCND:US1GAFS0020,METERS,-84.1164444386959,GA
30.2,2003-02-20,2026-02-28,32.3911,"METTER GEORGIA, GA US",0.9992,GHCND:USR0000GMET,METERS,-82.0372,GA
57.9,2001-07-01,2005-02-28,31.03917,"LAKELAND, GA US",0.9985,GHCND:USC00094971,METERS,-83.07583,GA
73.5,2019-03-11,2024-05-14,31.113474,"ADEL 1.9 SSE, GA US",0.9984,GHCND:US1GACO0003,METERS,-83.411606,GA
76.5,2019-10-26,2026-02-26,22.2064,"KILAUEA 2.3 E, HI US",1.0,GHCND:US1HIKI0031,METERS,-159.374,HI
88.4,1995-04-01,2009-08-31,19.2923,"KEALAKOMO 38.8, HI US",1.0,GHCND:USC00514080,METERS,-155.1417,HI
391.4,2001-10-01,2004-04-30,20.92639,"HORNER RESERVOIR 467.01, HI US",1.0,GHCND:USC00512144,METERS,-156.6525,HI
987.6,1995-04-01,1997-05-31,19.98333,"PUUKAPU 204.3, HI US",1.0,GHCND:USC00518384,METERS,-155.6,HI
548.9,1985-05-01,1987-01-31,20.2,"KAAUHUHU, HI US",1.0,GHCND:USC00512270,METERS,-155.83333,HI
11.9,1975-10-01,1981-05-31,21.38333,"ALOHA STADIUM HALAWA, HI US",1.0,GHCND:USC00510172,METERS,-157.93333,HI
952.5,1978-08-01,1979-03-31,20.75868,"KULA BRANCH STATION 324.5, HI US",1.0,GHCND:USC00518743,METERS,-156.3211,HI
253.0,1976-11-01,1978-04-30,20.9,"PEAHI 488.6, HI US",1.0,GHCND:USC00517952,METERS,-156.28333,HI
769.0,1964-01-01,1976-09-30,20.78333,"KULA HEIGHTS 323.2, HI US",1.0,GHCND:USC00515003,METERS,-156.31667,HI
214.0,1966-06-01,1976-05-31,21.46667,"PRI WAHIAWA 820.2, HI US",1.0,GHCND:USC00518172,METERS,-158.01667,HI
435.6,2024-04-18,2026-02-26,43.054526,"IRETON 5.5 N, IA US",1.0,GHCND:US1IASX0015,METERS,-96.332469,IA
229.2,2021-07-01,2026-02-26,41.0108653,"YARMOUTH 1.9 SW, IA US",1.0,GHCND:US1IADM0015,METERS,-91.3526997,IA
298.1,2007-08-01,2026-02-23,42.044777,"AMES 1.5 NNE, IA US",1.0,GHCND:US1IASR0002,METERS,-93.617361,IA
417.9,1963-07-01,1963-12-31,42.31667,"ODEBOLT 2, IA US",1.0,GHCND:USC00136195,METERS,-95.25,IA
267.9,1948-04-01,1949-05-31,42.05,"MARSHALLTOWN 1, IA US",1.0,GHCND:USC00135193,METERS,-92.9,IA
256.0,1953-06-01,2026-03-01,41.882917,"CEDAR RAPIDS MUNICIPAL AIRPORT, IA US",0.9997,GHCND:USW00014990,METERS,-91.724591,IA
253.0,2003-05-01,2013-06-14,43.3197,"LANSING 4 SE, IA US",0.9997,GHCND:USC00134624,METERS,-91.1616,IA
339.2,2020-04-30,2026-02-27,42.531447,"FORT DODGE 1.7 NNW, IA US",0.9995,GHCND:US1IAWB0017,METERS,-94.183973,IA
338.3,1964-11-01,2026-03-01,42.02097,"AMES 8 WSW, IA US",0.9994,GHCND:USC00130200,METERS,-93.77428,IA
417.6,1951-05-01,2020-02-04,42.4897,"HOLSTEIN, IA US",0.999,GHCND:USC00133909,METERS,-95.5488,IA
2901.7,2001-09-18,2026-03-01,43.73,"SMILEY MOUNTAIN, ID US",1.0,GHCND:USS0013F13S,METERS,-113.83,ID
1816.6,1984-08-02,2026-03-01,46.56,"CRATER MEADOWS, ID US",1.0,GHCND:USS0015C09S,METERS,-115.29,ID
2170.2,1990-09-25,2026-03-01,42.01,"WILSON CREEK, ID US",1.0,GHCND:USS0015G02S,METERS,-115.0,ID
1356.6,1939-01-03,2026-03-01,42.91969,"POCATELLO REGIONAL AIRPORT, ID US",1.0,GHCND:USW00024156,METERS,-112.57232,ID
1093.0,1958-02-25,1971-12-31,47.46667,"MULLAN PASS, ID US",1.0,GHCND:USW00094150,METERS,-115.76667,ID
1563.9,1948-08-01,1962-04-17,44.16667,"DUBOIS FAA AIRPORT, ID US",1.0,GHCND:USW00024140,METERS,-112.21667,ID
2042.2,1909-05-01,1911-08-31,44.416667,"EDIE, ID US",1.0,GHCND:USC00102853,METERS,-112.6,ID
1432.6,1908-05-17,1910-09-30,42.55,"LOWRY, ID US",1.0,GHCND:USC00105427,METERS,-117.0,ID
1447.8,1908-09-01,1909-12-31,42.283333,"OXFORD, ID US",1.0,GHCND:USC00106700,METERS,-112.016667,ID
903.4,1899-02-19,1901-07-31,42.866667,"HAGERMAN, ID US",1.0,GHCND:USC00103930,METERS,-114.85,ID
201.2,1997-09-01,2026-03-01,41.60413,"ROMEOVILLE WEATHER FORECAST OFFICE, IL US",1.0,GHCND:USC00117457,METERS,-88.08497,IL
157.9,2006-12-08,2023-06-30,38.509621,"BELLEVILLE 2.2 SE, IL US",0.9997,GHCND:US1ILSC0003,METERS,-89.971091,IL
231.6,1948-06-01,2026-02-28,39.93709,"QUINCY REGIONAL AIRPORT, IL US",0.9994,GHCND:USW00093989,METERS,-91.19661,IL
223.1,2008-06-04,2026-02-26,41.333615,"PEOTONE 0.4 ENE, IL US",0.9994,GHCND:US1ILWL0046,METERS,-87.789061,IL
182.9,1901-01-01,1977-03-31,39.95,"QUINCY, IL US",0.9994,GHCND:USC00117067,METERS,-91.4,IL
187.8,2011-03-08,2018-04-10,41.123025,"BONFIELD 4.0 WSW, IL US",0.9985,GHCND:US1ILKK0023,METERS,-88.125737,IL
163.1,1951-04-01,1973-05-28,38.98333,"VANDALIA FAA AIRPORT, IL US",0.9984,GHCND:USW00003838,METERS,-89.16667,IL
227.7,2014-10-03,2021-05-12,41.803318,"DOWNERS GROVE 0.4 NNE, IL US",0.9967,GHCND:US1ILDP0127,METERS,-88.015427,IL
205.7,2001-11-01,2026-03-02,40.1101,"OGDEN, IL US",0.9964,GHCND:USC00116344,METERS,-87.9567,IL
236.8,2018-09-05,2026-02-27,41.3774,"BULT FIELD MONEE 4.9 SE, IL US",0.9963,GHCND:US1ILWL0149,METERS,-87.67975,IL
260.6,2020-05-01,2026-02-26,41.21132,"WARSAW 3.0 SE, IN US",1.0,GHCND:US1INKS0063,METERS,-85.80322,IN
226.8,2022-07-18,2023-01-20,40.885238,"HUNTINGTON 1.2 ENE, IN US",1.0,GHCND:US1INHT0017,METERS,-85.482565,IN
153.9,2020-05-15,2022-03-21,39.39437,"TERRE HAUTE 5.3 S, IN US",1.0,GHCND:US1INVG0028,METERS,-87.39628,IN
223.1,2006-02-18,2007-04-04,39.919314,"CASTLETON 2.5 WNW, IN US",1.0,GHCND:US1INMR0005,METERS,-86.09264,IN
195.1,2006-03-08,2006-08-07,39.217515,"COLUMBUS 2.6 E, IN US",1.0,GHCND:US1INBW0001,METERS,-85.864855,IN
125.0,1992-06-01,2001-06-30,37.93917,"ROCKPORT 4 N, IN US",1.0,GHCND:USC00127511,METERS,-87.05889,IN
232.9,2017-06-17,2026-02-26,39.27934,"W9DBA MORGANTOWN 6.7 SSE, IN US",0.9997,GHCND:US1INBR0005,METERS,-86.231082,IN
248.1,2006-11-11,2026-02-27,41.329704,"PLYMOUTH 2.5 WSW, IN US",0.9996,GHCND:US1INML0006,METERS,-86.356804,IN
200.3,2022-09-30,2026-02-26,39.218606,"COLUMBUS 2.1 ENE, IN US",0.9992,GHCND:US1INBW0027,METERS,-85.874849,IN
238.0,1942-05-01,1949-04-30,39.88333,"INDIANAPOLIS HOL PAR, IN US",0.9988,GHCND:USC00124254,METERS,-86.16667,IN
484.0,2022-10-01,2026-02-27,37.666638,"KINGMAN 1.4 N, KS US",1.0,GHCND:US1KSKM0020,METERS,-98.111858,KS
412.4,2023-06-04,2026-02-27,37.697081,"WICHITA 7.4 W, KS US",1.0,GHCND:US1KSSG0188,METERS,-97.477239,KS
373.4,2023-05-10,2026-02-26,39.43733,"CLAY CENTER 5.3 NW, KS US",1.0,GHCND:US1KSCY0019,METERS,-97.18818,KS
371.9,1948-08-01,1952-02-19,39.9,"HANOVER, KS US",0.9992,GHCND:USC00143393,METERS,-96.88333,KS
1029.0,2006-11-30,2026-02-22,37.9376,"SYRACUSE 7.2 WSW, KS US",0.9991,GHCND:US1KSHM0005,METERS,-101.8714,KS
762.9,1951-09-01,1969-09-30,39.46667,"LUCERNE 2 SE, KS US",0.9985,GHCND:USC00144877,METERS,-100.18333,KS
369.1,1955-07-01,1958-07-31,39.76667,"FRANKFORT 5 N SOIL CONSERVATION SERVICE 6, KS US",0.9982,GHCND:USC00142877,METERS,-96.43333,KS
766.9,2005-03-01,2026-02-27,39.7704,"NORCATUR 4.4 S, KS US",0.9979,GHCND:US1KSDC0002,METERS,-100.1813,KS
34.1,2018-04-01,2026-02-26,37.077184,"ARKANSAS CITY 0.7 NW, KS US",0.9979,GHCND:US1KSCL0028,METERS,-97.048857,KS
797.1,2005-02-28,2026-02-27,39.8127,"NORCATUR 3.1 WSW, KS US",0.9973,GHCND:US1KSDC0001,METERS,-100.2421,KS
413.0,1981-01-01,2026-03-01,37.591335,"JACKSON JULIAN CARROLL AIRPORT, KY US",1.0,GHCND:USW00003889,METERS,-83.313696,KY
147.8,2022-08-10,2026-02-27,38.678792,"CARROLLTON 0.9 W, KY US",1.0,GHCND:US1KYCR0002,METERS,-85.181787,KY
234.7,2016-04-02,2020-09-12,37.465372,"JACKSON 8.4 SE, KY US",1.0,GHCND:US1KYBE0005,METERS,-83.280179,KY
133.2,2004-04-01,2007-08-31,37.4941,"LIVERMORE 1 ESE, KY US",1.0,GHCND:USC00154838,METERS,-87.1391,KY
159.4,2001-10-01,2002-02-28,37.18389,"BELTON 2 NE, KY US",1.0,GHCND:USC00150582,METERS,-87.00917,KY
262.4,1948-01-01,2026-02-28,39.04443,"CINCINNATI NORTHERN KENTUCKY INTERNATIONAL AIRPORT, KY US",0.9997,GHCND:USW00093814,METERS,-84.67241,KY
275.2,2018-07-28,2026-02-26,38.6609441,"BEDFORD 4.7 N, KY US",0.9993,GHCND:US1KYTB0008,METERS,-85.3233818,KY
287.1,2008-03-05,2026-02-27,37.524503,"BRADFORDSVILLE 8.5 ENE, KY US",0.9991,GHCND:US1KYCS0001,METERS,-84.996532,KY
387.1,2009-12-01,2015-03-31,37.7433,"ROGERS, KY US",0.999,GHCND:USC00156890,METERS,-83.6428,KY
259.1,2020-03-12,2026-02-27,39.0347,"WILDER 0.2 ESE, KY US",0.9986,GHCND:US1KYCB0010,METERS,-84.4751,KY
69.5,1939-07-01,2026-03-01,32.4473,"SHREVEPORT AIRPORT, LA US",1.0,GHCND:USW00013957,METERS,-93.8244,LA
25.9,1994-09-01,2002-06-30,32.69333,"STERLINGTON NUMBER 2, LA US",1.0,GHCND:USC00168788,METERS,-92.05139,LA
6.1,1986-01-01,1992-12-31,30.0388,"LUTCHER, LA US",1.0,GHCND:USC00163755,METERS,-90.6936,LA
0.9,1988-02-01,1991-12-31,29.7852,"MARRERO 9 SSW, LA US",1.0,GHCND:USC00164624,METERS,-90.1158,LA
85.3,1983-02-01,1988-06-30,31.15,"LEESVILLE 5 ENE, LA US",1.0,GHCND:USC00165283,METERS,-93.18333,LA
154.8,1984-02-01,1985-05-31,32.65,"ATHENS FIRE TOWER, LA US",1.0,GHCND:USC00160381,METERS,-93.06667,LA
67.1,1982-10-01,1985-05-31,31.8,"AIMWELL FIRE TOWER, LA US",1.0,GHCND:USC00160045,METERS,-91.96667,LA
61.0,1978-04-01,1978-11-30,30.93333,"FRANKLINTON 6 NNW, LA US",1.0,GHCND:USC00163326,METERS,-90.18333,LA
,1970-09-01,1970-12-31,29.4,"EMPIRE, LA ",1.0,GHCND:USC00162884,,-89.6,LA
6.1,1962-04-01,1967-01-31,30.31667,"HENDERSON 2 W, LA US",1.0,GHCND:USC00164186,METERS,-91.81667,LA
3.2,1936-01-01,2026-03-01,42.36057,"BOSTON LOGAN INTERNATIONAL AIRPORT, MA US",1.0,GHCND:USW00014739,METERS,-71.00975,MA
65.5,2009-02-24,2026-02-27,42.19738,"NORWOOD 1.3 NW, MA US",1.0,GHCND:US1MANF0001,METERS,-71.2152672,MA
298.7,2019-11-04,2026-02-27,42.563158,"CHESHIRE 0.5 NNW, MA US",1.0,GHCND:US1MABE0021,METERS,-73.157019,MA
281.3,2020-08-13,2026-02-26,42.237427,"LEICESTER 2.5 WSW, MA US",1.0,GHCND:US1MAWR0088,METERS,-71.946129,MA
190.5,1885-02-01,2026-01-30,42.2123,"BLUE HILL LCD, MA US",1.0,GHCND:USW00014753,METERS,-71.1137,MA
86.3,2017-07-30,2021-01-01,42.20069,"HOLLISTON 2.4 W, MA US",1.0,GHCND:US1MAMD0106,METERS,-71.479819,MA
326.1,1990-09-01,1996-09-30,42.06667,"WEST GRANVILLE, MA US",1.0,GHCND:USC00199221,METERS,-72.93333,MA
14.9,1963-07-01,1966-04-30,41.9,"SOUTH WELLFLEET, MA US",1.0,GHCND:USC00191147,METERS,-69.98333,MA
207.0,1953-01-01,1956-11-30,42.13333,"CHARLTON 2, MA US",1.0,GHCND:USC00191344,METERS,-71.95,MA
54.9,1943-01-01,1950-01-31,42.41667,"ARLINGTON, MA US",1.0,GHCND:USC00190166,METERS,-71.18333,MA
42.0,1939-07-01,2026-02-28,39.17329,"BALTIMORE WASHINGTON INTERNATIONAL AIRPORT, MD US",1.0,GHCND:USW00093721,METERS,-76.68408,MD
150.9,2019-05-11,2026-02-27,39.271389,"GLENWOOD 1.2 SSW, MD US",1.0,GHCND:US1MDHW0047,METERS,-77.03722,MD
11.0,2022-04-04,2023-08-26,38.786408827334,"EASTON 0.8 NNW, MD US",1.0,GHCND:US1MDTB0026,METERS,-76.0730389543387,MD
6.1,2010-07-01,2010-12-31,38.749729,"DEALE 3.0 S, MD US",1.0,GHCND:US1MDAA0044,METERS,-76.555957,MD
121.6,2008-02-08,2008-06-17,39.2201,"ELKRIDGE 2.2 NW, MD US",1.0,GHCND:US1MDHW0019,METERS,-76.7847,MD
100.9,2006-05-01,2006-08-31,39.011742,"SILVER SPG 1.0 NNW, MD US",1.0,GHCND:US1MDMG0026,METERS,-77.059568,MD
134.1,2006-05-01,2006-08-31,39.131855,"REDLAND 0.3 W, MD US",1.0,GHCND:US1MDMG0009,METERS,-77.155216,MD
61.0,1948-08-01,1950-09-30,39.0,"GREAT FALLS, MD US",1.0,GHCND:USC00183855,METERS,-77.25,MD
98.1,1948-08-01,1949-02-28,38.98333,"TAKOMA PK BALT AVE, MD US",1.0,GHCND:USC00188720,METERS,-77.01667,MD
14.4,1948-07-20,2026-02-28,38.3409,"SALISBURY WICOMICO REGIONAL AIRPORT, MD US",0.9999,GHCND:USW00093720,METERS,-75.51324,MD
13.5,1940-11-07,2026-03-01,43.64244,"PORTLAND JETPORT, ME US",1.0,GHCND:USW00014764,METERS,-70.30443,ME
25.0,2013-10-01,2020-12-17,43.88806,"WESTPORT ISLAND 2.2 SSW, ME US",1.0,GHCND:US1MELN0021,METERS,-69.70889,ME
71.0,2014-08-24,2017-02-05,44.9442,"WESLEY 2 W, ME US",1.0,GHCND:USC00179295,METERS,-67.7086,ME
17.4,2014-04-05,2015-12-09,44.9067,"EASTPORT 1.5 SE, ME US",1.0,GHCND:US1MEWS0024,METERS,-66.9866,ME
7.9,2014-08-22,2014-12-01,43.879,"BATH 4.1 S, ME US",1.0,GHCND:US1MESG0014,METERS,-69.8231998333333,ME
2.7,2011-03-01,2011-06-17,43.5587,"SCARBOROUGH 3.0 SSE, ME US",1.0,GHCND:US1MECM0083,METERS,-70.307,ME
23.8,2009-12-01,2010-04-14,43.6758,"PORTLAND 4.8 W, ME US",1.0,GHCND:US1MECM0043,METERS,-70.3028,ME
146.3,1995-12-01,1998-04-30,47.3,"GRAND ISLE, ME US",1.0,GHCND:USC00173219,METERS,-68.15,ME
128.0,1969-10-01,1973-06-30,45.18333,"EAST DOVER, ME US",1.0,GHCND:USC00172207,METERS,-69.16667,ME
41.1,1948-06-01,1972-01-31,44.95,"OLD TOWN FAA AIRPORT, ME US",1.0,GHCND:USW00014622,METERS,-68.66667,ME
240.3,1963-11-24,2026-02-28,42.8821,"GRAND RAPIDS GERALD R FORD INTERNATIONAL AIRPORT, MI US",1.0,GHCND:USW00094860,METERS,-85.52297,MI
295.0,2024-07-30,2026-02-27,42.4455,"LESLIE 4.3 E, MI US",1.0,GHCND:US1MIIH0061,METERS,-84.34709,MI
233.8,2023-02-24,2026-02-27,46.71871,"BIG BAY 9.0 SE, MI US",1.0,GHCND:US1MIMQ0032,METERS,-87.61221,MI
202.7,2007-03-01,2007-06-30,42.205,"ROMULUS, MI US",1.0,GHCND:USC00207110,METERS,-83.40667,MI
199.0,2005-12-01,2006-09-30,46.9828,"SANDSTONE, MI US",1.0,GHCND:USC00207344,METERS,-88.4158,MI
262.1,1953-04-15,1977-08-31,46.25,"KINCHELOE AFB, MI US",1.0,GHCND:USW00094824,METERS,-84.46667,MI
192.0,1954-09-01,1958-11-30,44.93333,"GLEN ARBOR 4 NE, MI US",1.0,GHCND:USC00203176,METERS,-85.91667,MI
189.9,1945-02-01,1945-10-22,44.71667,"TRAVERSE CITY, MI US",1.0,GHCND:USW00014857,METERS,-85.55,MI
228.0,2007-11-01,2026-03-02,45.3613,"PETOSKEY NCMC, MI US",0.9999,GHCND:USC00206510,METERS,-84.9512,MI
178.9,2008-06-24,2026-03-02,45.8983,"GARDEN CORNERS, MI US",0.9997,GHCND:USC00203078,METERS,-86.5485,MI
317.0,1951-04-01,1951-09-30,46.01667,"HINCKLEY, MN US",1.0,GHCND:USC00213795,METERS,-92.95,MN
288.3,1996-01-01,2026-03-02,44.8496,"CHANHASSEN WSFO, MN US",0.9999,GHCND:USC00211448,METERS,-93.5644,MN
306.0,2024-03-01,2026-02-27,45.0055,"PLYMOUTH 2.4 WSW, MN US",0.9986,GHCND:US1MNHN0561,METERS,-93.50529,MN
367.9,2017-03-06,2026-02-27,46.067857,"LITTLE FALLS 8.0 NE, MN US",0.9963,GHCND:US1MNMR0013,METERS,-94.247899,MN
349.6,1915-01-02,2026-02-24,44.07063,"WASECA SOUTHERN RESEARCH AND OUTREACH CENTER, MN US",0.995,GHCND:USC00218692,METERS,-93.52647,MN
275.7,1997-11-01,2026-02-28,44.83214,"MINNEAPOLIS FLYING CLOUD AIRPORT, MN US",0.9946,GHCND:USW00094963,METERS,-93.47051,MN
301.1,2022-04-21,2026-02-27,45.4121274,"BIG LAKE 5.0 NNW, MN US",0.9943,GHCND:US1MNSH0055,METERS,-93.7710021,MN
413.0,1998-01-01,2026-02-28,47.1253,"TWO HARBORS 7 NW, MN US",0.9936,GHCND:USC00218421,METERS,-91.7067,MN
317.0,2004-02-01,2011-04-30,44.4175,"MORGAN, MN US",0.9928,GHCND:USC00215590,METERS,-94.92167,MN
399.3,2021-07-15,2026-02-27,43.7971,"WALTHAM 2.0 SE, MN US",0.9923,GHCND:US1MNMW0013,METERS,-92.8488,MN
372.8,2013-08-01,2026-02-27,36.61445,"CASSVILLE 4.8 SSE, MO US",1.0,GHCND:US1MOBY0025,METERS,-93.83634,MO
230.1,2019-04-01,2026-02-26,38.95238,"COLUMBIA 2.1 W, MO US",1.0,GHCND:US1MOBN0082,METERS,-92.36661,MO
268.2,2025-05-19,2025-05-20,40.0455,"ROSENDALE, MO US",1.0,GHCND:USC00237304,METERS,-94.8288,MO
183.8,2011-09-01,2012-10-16,38.553063,"JEFFERSON CITY 3.1 ESE, MO US",1.0,GHCND:US1MOCE0010,METERS,-92.137955,MO
286.5,2007-01-01,2007-05-31,38.9388,"UNITY VILLAGE 2.6ESE, MO US",1.0,GHCND:USC00238526,METERS,-94.3558,MO
264.9,1949-09-01,1960-05-26,38.3,"BUTLER FAA AIRPORT, MO US",1.0,GHCND:USW00093995,METERS,-94.33333,MO
291.7,1910-01-01,1948-12-31,39.81667,"ST JOSEPH WEATHER BUREAU OFFICE CITY, MO US",1.0,GHCND:USW00074401,METERS,-94.85,MO
,1940-08-01,1947-12-31,36.63333,"ALTON 10 SE, MO US",1.0,GHCND:USC00230122,,-91.23333,MO
,1941-01-01,1942-03-31,39.066667,"HIGGINSVILLE, MO US",1.0,GHCND:USC00233837,,-93.7,MO
277.1,1898-10-01,1901-09-30,37.812822,"COOK STATION, MO US",1.0,GHCND:USC00231868,METERS,-91.437925,MO
85.0,2008-07-18,2026-02-27,32.3518,"FLOWOOD 2.9 NE, MS US",1.0,GHCND:US1MSRN0002,METERS,-90.0688,MS
108.8,2022-07-01,2025-11-03,34.2785,"TUPELO 3.3 WNW 1W ARPT, MS US",1.0,GHCND:US1MSLE0011,METERS,-88.7874,MS
92.0,2008-07-28,2009-04-24,32.15265,"FLORENCE 0.2 SE, MS US",1.0,GHCND:US1MSRN0006,METERS,-90.12559,MS
61.0,1998-06-01,1998-12-31,33.565,"STEENS, MS US",1.0,GHCND:USC00228397,METERS,-88.31361,MS
36.9,1948-01-01,1950-05-31,32.4,"VICKSBURG OLD, MS US",1.0,GHCND:USW00013979,METERS,-90.78333,MS
49.1,1945-08-01,1946-01-31,34.01667,"DEESON, MS US",1.0,GHCND:USC00222275,METERS,-90.86667,MS
113.1,1954-10-01,1984-10-31,32.03333,"CRYSTAL SPRINGS 4 NN, MS US",0.9997,GHCND:USC00222099,METERS,-90.31667,MS
71.0,1948-07-01,1956-10-31,32.28167,"JACKSON 1 SSE, MS US",0.9993,GHCND:USC00224462,METERS,-90.17861,MS
100.6,2008-07-31,2026-02-27,34.595869,"SENATOBIA 1.5 S, MS US",0.9989,GHCND:US1MSTT0001,METERS,-89.970935,MS
4.9,1998-08-08,2026-02-28,30.4121,"GULFPORT BILOXI AIRPORT, MS US",0.9987,GHCND:USW00093874,METERS,-89.08093,MS
1534.7,1976-09-30,2026-03-01,48.31,"HAND CREEK, MT US",1.0,GHCND:USS0014A14S,METERS,-114.84,MT
1807.5,1976-09-30,2026-03-01,48.3,"PIKE CREEK, MT US",1.0,GHCND:USS0013A26S,METERS,-113.33,MT
1447.8,1980-09-05,2026-03-01,47.43,"KRAFT CREEK, MT US",1.0,GHCND:USS0013B22S,METERS,-113.78,MT
973.8,1948-01-01,2026-03-01,46.92076,"MISSOULA INTERNATIONAL AIRPORT, MT US",1.0,GHCND:USW00024153,METERS,-114.09376,MT
1905.0,1967-09-30,2026-03-01,46.87,"N FK ELK CREEK, MT US",1.0,GHCND:USS0013C31S,METERS,-113.28,MT
2090.9,1963-09-30,2026-03-01,45.5,"LICK CREEK, MT US",1.0,GHCND:USS0010D13S,METERS,-110.97,MT
1966.0,1967-09-30,2026-03-01,46.79,"DEADMAN CREEK, MT US",1.0,GHCND:USS0010C09S,METERS,-110.68,MT
1088.1,2002-10-01,2008-08-31,46.7169,"CLINTON 6 SE, MT US",1.0,GHCND:USC00241831,METERS,-113.6672,MT
2033.9,1952-05-16,1952-09-30,44.6,"MONIDA 5 NE, MT US",1.0,GHCND:USC00245814,METERS,-112.21667,MT
1204.0,1910-11-10,1912-06-30,48.633333,"SEVILLE, MT US",1.0,GHCND:USC00247462,METERS,-112.533333,MT
30.8,2012-09-06,2026-02-27,35.300700366497,"KINSTON 5.1 WNW, NC US",1.0,GHCND:US1NCLR0010,METERS,-77.6762118190527,NC
242.3,2008-03-01,2022-02-14,36.1515,"GREENSBORO 5.3 NNE, NC US",1.0,GHCND:US1NCGL0008,METERS,-79.7968,NC
255.1,2008-03-01,2009-01-07,35.85567,"THOMASVILLE 2.4 SSW, NC US",1.0,GHCND:US1NCDS0003,METERS,-80.08713,NC
702.0,1948-08-01,1949-07-31,35.18333,"FRANKLIN, NC US",1.0,GHCND:USC00313216,METERS,-83.38333,NC
2.4,1948-09-01,1949-03-31,35.20555,"HOBUCKEN BRIDGE, NC US",1.0,GHCND:USC00314136,METERS,-76.58972,NC
175.0,2007-09-01,2026-02-27,35.020746,"MONROE 2.4 N, NC US",0.9997,GHCND:US1NCUN0001,METERS,-80.53429,NC
235.0,1971-10-01,1977-12-31,36.08333,"WINSTON SALEM FILTER, NC US",0.9996,GHCND:USC00319527,METERS,-80.21667,NC
926.6,2009-01-01,2026-02-27,35.493224,"WAYNESVILLE 1.0 NW, NC US",0.9995,GHCND:US1NCHW0025,METERS,-83.012711,NC
25.9,2008-05-09,2026-02-27,35.5258,"WINTERVILLE 3.5 W, NC US",0.9995,GHCND:US1NCPT0007,METERS,-77.4605,NC
399.9,1948-09-01,1962-03-31,35.45,"FONTANA DAM, NC US",0.9992,GHCND:USC00313127,METERS,-83.8,NC
476.1,2019-03-01,2026-02-25,48.232831,"TOWNER 11.9 SE, ND US",1.0,GHCND:US1NDPR0006,METERS,-100.214821,ND
773.9,2021-03-14,2024-02-15,46.9127,"DICKINSON 2.4 NW, ND US",1.0,GHCND:US1NDSK0027,METERS,-102.8144,ND
445.0,2019-07-01,2019-08-31,48.9525,"WESTHOPE 4.3 NE, ND US",1.0,GHCND:USC00329334,METERS,-100.94972,ND
271.6,2010-04-02,2010-11-01,46.976869,"FARGO 6.9 N, ND US",1.0,GHCND:US1NDCS0027,METERS,-96.82274,ND
438.9,1953-04-01,1953-07-31,48.58333,"UPHAM 3 W, ND US",1.0,GHCND:USC00328918,METERS,-100.78333,ND
455.7,1948-07-01,2026-03-01,46.92586,"JAMESTOWN MUNICIPAL AIRPORT, ND US",0.9997,GHCND:USW00014919,METERS,-98.67037,ND
564.2,2011-09-12,2014-07-20,46.904857,"BISMARCK 6.9 N, ND US",0.999,GHCND:US1NDBH0009,METERS,-100.75781,ND
509.0,1948-07-01,1953-12-31,46.8,"BISMARCK, ND US",0.999,GHCND:USC00320814,METERS,-100.8,ND
415.1,1950-10-25,1962-07-31,46.46667,"GRAND RAPIDS 1 N, ND US",0.9986,GHCND:USC00323665,METERS,-98.35,ND
479.1,1951-06-01,1952-12-31,47.06667,"BUCHANAN, ND US",0.9983,GHCND:USC00321124,METERS,-98.81667,ND
,2013-09-01,2014-04-14,41.9599,"NORFOLK 5.5 SE, NE US",1.0,GHCND:US10stan014,,-97.36441667,NE
907.7,2011-10-31,2011-10-31,40.03436,"BENKELMAN 1 SW, NE US",1.0,GHCND:USC00250762,METERS,-101.54308,NE
463.0,2008-06-01,2011-10-17,42.0268,"NORFOLK 0.4 ESE, NE US",1.0,GHCND:US10madi018,METERS,-97.41,NE
751.9,2004-09-14,2010-09-23,40.0378,"DANBURY 0.5 W, NE US",1.0,GHCND:US10red_013,METERS,-100.4151,NE
499.9,2006-06-01,2008-05-31,42.1037,"PIERCE 7.0 SSW, NE US",1.0,GHCND:US10pier004,METERS,-97.5746,NE
1272.8,2004-06-22,2005-11-14,41.9618,"MINATARE 10.5 N, NE US",1.0,GHCND:US10scot007,METERS,-103.5192,NE
1131.1,2004-06-18,2004-10-31,41.7081,"BRIDGEPORT 3.1 NNW, NE US",1.0,GHCND:US10morr006,METERS,-103.1199,NE
989.7,1983-01-01,1986-01-31,41.55222,"TRYON, NE US",1.0,GHCND:USC00257930,METERS,-100.95833,NE
1003.1,1977-06-01,1980-09-30,41.61667,"TRYON 6 NE, NE US",1.0,GHCND:USC00258654,METERS,-100.88333,NE
416.1,2004-03-01,2020-11-18,41.2211,"WESTON 3 NW, NE US",0.9995,GHCND:USC00259193,METERS,-96.7775,NE
536.4,2019-10-01,2020-08-19,43.66884,"ORANGE, NH US",1.0,GHCND:USC00276525,METERS,-71.94838,NH
164.6,1997-03-01,1997-07-31,42.88333,"EAST DERRY, NH US",1.0,GHCND:USC00272290,METERS,-71.26667,NH
82.3,1868-01-01,1941-04-30,43.205,"CONCORD, NH US",1.0,GHCND:USC00271682,METERS,-71.535,NH
103.1,1939-04-01,2026-03-01,43.20488,"CONCORD MUNICIPAL AIRPORT, NH US",0.9999,GHCND:USW00014745,METERS,-71.50257,NH
285.0,2009-07-01,2026-02-04,43.52,"DANBURY 2.2 ESE, NH US",0.9998,GHCND:US1NHMR0006,METERS,-71.819,NH
338.9,2019-10-01,2026-03-02,44.52835,"NORTHUMBERLAND, NH US",0.9996,GHCND:USC00276365,METERS,-71.50446,NH
1911.7,1948-01-01,2026-03-02,44.27018,"MOUNT WASHINGTON, NH US",0.9993,GHCND:USW00014755,METERS,-71.30336,NH
153.0,2009-06-21,2026-02-27,43.5949,"BRISTOL 0.4 SSE, NH US",0.9993,GHCND:US1NHGR0001,METERS,-71.7414,NH
73.2,2008-07-01,2026-03-02,42.8266,"EAST MILFORD, NH US",0.9992,GHCND:USC00272302,METERS,-71.626,NH
54.9,2014-09-01,2026-03-02,42.7346,"NASHUA CWSU, NH US",0.999,GHCND:USC00275703,METERS,-71.4802,NH
10.7,2023-06-09,2026-02-27,40.021885,"WILLINGBORO TWP 1.3 ESE, NJ US",1.0,GHCND:US1NJBT0094,METERS,-74.864085,NJ
113.7,2021-11-29,2022-08-15,40.6121,"WARREN TWP 2.1 SW, NJ US",1.0,GHCND:US1NJSM0095,METERS,-74.5433,NJ
160.3,2015-08-08,2015-11-17,40.910808,"ALLAMUCHY TWP 2.1 WSW, NJ US",1.0,GHCND:US1NJWR0030,METERS,-74.8691,NJ
7.6,2014-08-18,2026-02-14,40.45623,"OLD BRIDGE TWP 5.1 NE, NJ US",0.9998,GHCND:US1NJMD0062,METERS,-74.241325,NJ
29.9,2008-01-25,2017-12-31,40.472647,"HILLSBOROUGH TWP 4.7 ESE, NJ US",0.9994,GHCND:US1NJSM0001,METERS,-74.590393,NJ
27.1,2021-07-01,2026-02-27,40.2361489316549,"HAMILTON TWP 2.6 NNE, NJ US",0.9988,GHCND:US1NJMC0065,METERS,-74.6502706307096,NJ
27.7,2008-06-14,2026-02-27,39.593611,"FRANKLIN TWP 2.7 W, NJ US",0.9988,GHCND:US1NJGL0006,METERS,-75.069191,NJ
7.3,1996-01-01,2026-03-02,40.7481,"HARRISON, NJ US",0.9984,GHCND:USC00283704,METERS,-74.152,NJ
0.6,2009-02-21,2023-05-14,39.8626,"LACEY TWP 6.3 E, NJ US",0.9983,GHCND:US1NJOC0017,METERS,-74.141,NJ
39.0,2023-05-09,2024-10-31,40.03644,"WRIGHTSTOWN, NJ US",0.9982,GHCND:USC00289911,METERS,-74.6103,NJ
3370.2,2010-08-15,2026-03-01,36.58,"TAOS POWDERHORN, NM US",1.0,GHCND:USS0005N14S,METERS,-105.46,NM
2186.0,2023-05-14,2026-02-27,35.711793,"SANTA FE 2.3 N, NM US",1.0,GHCND:US1NMSF0217,METERS,-105.947644,NM
2067.8,2018-08-03,2026-02-25,35.11486,"CEDAR CREST 0.5 NNW, NM US",1.0,GHCND:US1NMBR0273,METERS,-106.37583,NM
1314.6,2011-06-20,2014-05-31,33.8076,"ELIDA 14 SW, NM US",1.0,GHCND:USW00053022,METERS,-103.8431,NM
1317.0,2005-11-07,2006-10-24,32.253923,"DEMING 0.8 SE, NM US",1.0,GHCND:US1NMLU0004,METERS,-107.741349,NM
2114.4,1987-08-01,1993-04-30,33.35,"RUIDOSO 2, NM US",1.0,GHCND:USC00297651,METERS,-105.66667,NM
2073.9,1974-07-01,1974-11-30,33.8,"YORK RANCH, NM US",1.0,GHCND:USC00299882,METERS,-108.33333,NM
2251.6,1940-01-01,1941-01-31,33.383333,"DOUBLE SPRINGS RANCH, NM US",1.0,GHCND:USC00292594,METERS,-108.316667,NM
1676.4,1910-09-01,1912-09-30,36.466667,"MOUNT DORA, NM US",1.0,GHCND:USC00295950,METERS,-103.45,NM
2011.7,1909-09-01,1910-10-31,35.25,"SWASTIKA RANCH, NM US",1.0,GHCND:USC00298605,METERS,-107.25,NM
2468.9,1978-09-30,2026-03-01,40.89,"DORSEY BASIN, NV US",1.0,GHCND:USS0015J01S,METERS,-115.2,NV
2133.6,2012-01-12,2026-03-01,41.89,"MERRITT MOUNTAIN, NV US",1.0,GHCND:USS0015H20S,METERS,-115.86,NV
2209.8,1978-09-30,2026-03-01,41.55,"JACK CREEK UPPER, NV US",1.0,GHCND:USS0016H02S,METERS,-116.01,NV
2026.9,2012-01-12,2026-03-01,41.67,"COLUMBIA BASIN, NV US",1.0,GHCND:USS0016H06S,METERS,-116.07,NV
2164.1,1978-09-30,2026-03-01,41.74,"SEVENTYSIX CREEK, NV US",1.0,GHCND:USS0015H03S,METERS,-115.47,NV
2401.8,1978-09-30,2026-03-01,39.16,"MARLETTE LAKE, NV US",1.0,GHCND:USS0019K04S,METERS,-119.9,NV
732.7,2022-10-25,2026-02-27,36.1014,"LAS VEGAS 7.4 SSW, NV US",1.0,GHCND:US1NVCK0110,METERS,-115.255,NV
1360.9,2017-12-22,2018-07-15,39.428986,"RENO 8.9 SSE, NV US",1.0,GHCND:US1NVWH0146,METERS,-119.735073,NV
2042.2,2014-10-08,2016-12-08,41.58,"FRY CANYON, NV US",1.0,GHCND:USS0015h07S,METERS,-115.93,NV
1547.8,2010-03-13,2015-05-07,40.82879,"ELKO 0.9 SE, NV US",1.0,GHCND:US1NVEL0009,METERS,-115.74839,NV
85.4,1938-06-01,2026-03-01,42.74722,"ALBANY INTERNATIONAL AIRPORT, NY US",1.0,GHCND:USW00014735,METERS,-73.79913,NY
21.0,2016-09-28,2026-02-26,40.89581,"RIDGE 1.8 SE, NY US",1.0,GHCND:US1NYSF0103,METERS,-72.853872,NY
442.0,2019-09-16,2021-12-08,42.57582,"PORTAGEVILLE 1 W, NY US",1.0,GHCND:USC00306746,METERS,-78.06724,NY
143.9,2011-12-28,2011-12-31,43.2241,"GRIFFISS INTERNATIONAL AIRPORT, NY US",1.0,GHCND:USC00303508,METERS,-75.3997,NY
260.9,2009-05-01,2009-12-31,42.06389,"CONKLIN 2, NY US",1.0,GHCND:USC00301702,METERS,-75.81028,NY
57.9,1989-05-01,1998-10-31,41.08333,"WEST NYACK, NY US",1.0,GHCND:USC00309270,METERS,-73.96667,NY
445.0,1955-05-05,1955-08-31,42.9,"CEDARVILLE 3 SE, NY US",1.0,GHCND:USC00301292,METERS,-75.08333,NY
6.1,1950-01-02,1951-03-31,40.6,"NEW YORK BENSONHURST, NY US",1.0,GHCND:USC00300621,METERS,-73.96667,NY
519.1,1948-05-01,1948-08-31,43.7,"OLD FORGE THENDARA, NY US",1.0,GHCND:USC00306179,METERS,-75.0,NY
451.1,1948-05-01,1959-06-30,42.23333,"LEXINGTON 1 SE, NY US",0.9998,GHCND:USC00304723,METERS,-74.33333,NY
287.7,2023-03-01,2026-02-27,40.128743,"PIQUA 1.4 SSW, OH US",1.0,GHCND:US1OHMM0029,METERS,-84.264354,OH
278.6,2019-03-23,2026-02-27,39.6595,"XENIA 2.8 SW, OH US",1.0,GHCND:US1OHGR0026,METERS,-83.9805,OH
204.5,2023-07-06,2026-02-27,41.379503,"NAPOLEON 1.2 SSE, OH US",1.0,GHCND:US1OHHY0014,METERS,-84.116006,OH
247.5,2021-10-31,2026-02-27,39.067218,"SHERWOOD 1.3 SSW, OH US",1.0,GHCND:US1OHHM0069,METERS,-84.371122,OH
207.6,2011-12-31,2023-07-05,41.328221,"MCCLURE 3.4 SSE, OH US",1.0,GHCND:US1OHHY0005,METERS,-83.908776,OH
177.7,2009-02-18,2010-01-07,41.71775,"TOLEDO 4.7 NE, OH US",1.0,GHCND:US1OHLS0005,METERS,-83.52604,OH
312.4,1997-08-01,1998-06-30,40.34306,"SUNBURY 6 N, OH US",1.0,GHCND:USC00338170,METERS,-82.84889,OH
225.9,1951-07-01,1953-12-31,39.76667,"LOCKBURNE AFB, OH US",1.0,GHCND:USC00334632,METERS,-82.93333,OH
406.0,1948-05-03,1949-06-24,39.98333,"BELMONT 4 SE, OH US",1.0,GHCND:USC00330581,METERS,-80.98333,OH
240.2,1899-02-01,1909-08-31,38.966667,"NEW RICHMOND, OH US",1.0,GHCND:USC00335908,METERS,-84.283333,OH
360.0,2006-07-01,2026-02-27,35.2392,"NORMAN 3.1 WNW, OK US",1.0,GHCND:US1OKCV0012,METERS,-97.4904,OK
261.5,2018-08-22,2021-12-31,34.71793,"ADA 4.1 S, OK US",1.0,GHCND:US1OKPN0013,METERS,-96.66444,OK
364.8,2015-12-27,2017-05-20,35.194759,"NORMAN 2.7 SE, OK US",1.0,GHCND:US1OKCV0122,METERS,-97.404009,OK
401.1,2006-10-08,2015-09-20,35.495864,"BETHANY 0.7 SSW, OK US",1.0,GHCND:US1OKOK0005,METERS,-97.64733,OK
220.1,1948-01-01,1949-07-01,36.93333,"HULAH, OK US",1.0,GHCND:USC00344388,METERS,-96.03333,OK
281.0,2007-11-09,2019-12-05,35.892953,"GUTHRIE 3.7 NNW, OK US",0.9998,GHCND:US1OKLG0006,METERS,-97.442378,OK
429.8,2009-02-01,2026-01-31,35.2723,"MINCO 2 SSW MESONET, OK US",0.9995,GHCND:USC00345870,METERS,-97.9555,OK
623.9,2007-09-01,2013-08-31,35.378677,"SAYRE 5.6 N, OK US",0.9995,GHCND:US1OKBC0002,METERS,-99.628505,OK
282.9,2009-02-01,2026-02-03,34.1937,"RINGLING 1 N MESONET, OK US",0.9993,GHCND:USC00347640,METERS,-97.5881,OK
349.9,2009-02-01,2026-02-02,34.5521,"FITTSTOWN 6 SW MESONET, OK US",0.9989,GHCND:USC00343145,METERS,-96.7178,OK
1396.0,2012-09-26,2026-03-01,42.22,"HOWARD PRAIRIE, OR US",1.0,GHCND:USS0022G26S,METERS,-122.37,OR
400.3,1928-01-01,2026-03-01,42.37503,"MEDFORD INTERNATIONAL AIRPORT, OR US",1.0,GHCND:USW00024225,METERS,-122.87702,OR
1438.7,2011-09-22,2026-03-01,44.33,"BEAR GRASS, OR US",1.0,GHCND:USS0022E10S,METERS,-122.09,OR
1490.5,1998-09-30,2026-03-01,42.21,"GERBER RESERVOIR, OR US",1.0,GHCND:USS0021G04S,METERS,-121.13,OR
72.8,2013-09-21,2026-02-27,44.53262,"CORVALLIS 2.7 SSE, OR US",1.0,GHCND:US1ORBN0085,METERS,-123.26175,OR
49.7,2024-07-02,2026-02-27,44.444617,"WALDPORT 1.7 NNW, OR US",1.0,GHCND:US1ORLC0053,METERS,-124.076912,OR
27.4,2019-10-22,2026-02-27,43.378571,"COOS BAY 0.2 W, OR US",1.0,GHCND:US1ORCS0026,METERS,-124.235898,OR
53.6,2023-02-23,2023-10-09,45.5433,"HILLSBORO 1.7 NW, OR US",1.0,GHCND:US1ORWS0171,METERS,-122.9667,OR
995.5,2016-05-20,2021-02-22,44.311561,"SISTERS 2.6 WNW, OR US",1.0,GHCND:US1ORDS0048,METERS,-121.592007,OR
1347.2,1918-07-24,1919-07-31,43.666667,"HAMPTON 1, OR US",1.0,GHCND:USC00353628,METERS,-120.25,OR
149.7,2019-04-01,2026-02-27,40.329716,"LEBANON 1.3 SW, PA US",1.0,GHCND:US1PALB0017,METERS,-76.441597,PA
155.1,2021-06-01,2026-02-10,39.844796,"GETTYSBURG 1.3 NE, PA US",1.0,GHCND:US1PAAD0075,METERS,-77.219568,PA
179.5,2016-12-01,2021-02-10,39.800656,"HANOVER 1.2 SW, PA US",1.0,GHCND:US1PAAD0063,METERS,-77.000833,PA
374.9,2020-09-01,2021-01-04,40.806397,"STATE COLLEGE 2.4 WNW, PA US",1.0,GHCND:US1PACN0031,METERS,-77.897769,PA
406.0,2006-11-01,2009-05-24,40.8125,"PORT MATILDA 5.8 E, PA US",1.0,GHCND:US1PACN0009,METERS,-77.9433,PA
246.9,1992-08-01,1994-02-28,40.445,"PIT CARNEGIE SCIENCE, PA US",1.0,GHCND:USC00366986,METERS,-80.01861,PA
591.0,1948-01-01,1954-05-31,40.85,"PARK PLACE 1 NW WEATHER BUREAU, PA US",1.0,GHCND:USW00014760,METERS,-76.11667,PA
210.0,1948-05-01,1953-08-31,42.11667,"ERIE WEATHER BUREAU CITY, PA US",1.0,GHCND:USC00362677,METERS,-80.08333,PA
121.9,1944-01-01,1946-12-31,39.92,"YORK INDIAN ROCK DAM, PA US",1.0,GHCND:USC00369943,METERS,-76.751833,PA
120.1,1888-07-01,1942-06-30,40.26667,"HARRISBURG, PA US",1.0,GHCND:USC00363711,METERS,-76.88333,PA
94.8,2014-11-01,2026-02-27,41.8889,"GREENVILLE 0.7 NNW, RI US",1.0,GHCND:US1RIPR0033,METERS,-71.5603,RI
147.5,2020-06-25,2026-02-26,41.691552,"GREENE 1.4 E, RI US",1.0,GHCND:US1RIKN0014,METERS,-71.723802,RI
77.7,2019-07-18,2019-12-01,41.664335,"COVENTRY 2.7 WSW, RI US",1.0,GHCND:US1RIKN0025,METERS,-71.606128,RI
59.4,2018-07-18,2018-10-25,41.6822,"WARWICK 2.4 SW, RI US",1.0,GHCND:US1RIKN0019,METERS,-71.4595,RI
87.2,2008-04-01,2008-09-22,41.972882,"CUMBERLAND HILL 0.7 E, RI US",1.0,GHCND:US1RIPR0002,METERS,-71.445662,RI
30.5,1991-07-01,1994-03-31,41.56667,"ADAMSVILLE 2 NW, RI US",1.0,GHCND:USC00370218,METERS,-71.15,RI
21.0,1948-06-01,1953-04-30,41.83333,"PROVIDENCE, RI US",1.0,GHCND:USC00376703,METERS,-71.41667,RI
7.3,1943-11-01,1946-01-31,41.366667,"POINT JUDITH, RI US",1.0,GHCND:USC00376450,METERS,-71.483333,RI
192.0,1974-10-01,2025-07-04,41.8564,"NORTH FOSTER 1 E, RI US",0.9999,GHCND:USC00375270,METERS,-71.7333,RI
25.3,2021-03-22,2026-02-27,41.754309,"WARWICK 3.9 NNE, RI US",0.9983,GHCND:US1RIKN0038,METERS,-71.394443,RI
254.5,2011-04-20,2011-09-26,34.8245,"EASLEY 6.1 ESE, SC US",1.0,GHCND:US1SCPC0012,METERS,-82.4949,SC
253.0,2014-05-01,2024-09-30,34.6746,"FOUNTAIN INN 2 SW, SC US",0.9997,GHCND:USC00383145,METERS,-82.2268,SC
1.5,2022-02-24,2026-02-25,32.223594,"HILTON HEAD ISLAND 4.7 ENE, SC US",0.9993,GHCND:US1SCBF0117,METERS,-80.671629,SC
233.2,2004-07-01,2026-03-02,34.6111,"SANDY SPRINGS 2 NE, SC US",0.999,GHCND:USC00387687,METERS,-82.727,SC
335.3,2004-07-01,2026-03-02,35.02016,"TABLE ROCK, SC US",0.9986,GHCND:USC00388472,METERS,-82.69282,SC
137.5,2013-03-20,2026-02-27,34.00942,"SALUDA 0.6 NNE, SC US",0.9973,GHCND:US1SCSL0009,METERS,-81.76829,SC
135.9,2023-04-11,2026-02-27,34.3716667,"BLAIR 6.3 ESE, SC US",0.9962,GHCND:US1SCFR0011,METERS,-81.3044444,SC
126.5,2015-03-16,2020-12-15,34.146914,"COLUMBIA 7.4 N, SC US",0.9962,GHCND:US1SCRC0062,METERS,-80.88642,SC
63.7,2021-08-05,2023-04-16,33.91422,"SUMTER 2.8 SW, SC US",0.9952,GHCND:US1SCSM0041,METERS,-80.425858,SC
12.5,2016-01-22,2026-02-24,32.7523498535156,"HOLLYWOOD 2.3 W, SC US",0.9951,GHCND:US1SCCR0105,METERS,-80.2402725219727,SC
406.0,2007-05-01,2021-11-24,43.862385,"FULTON 9.4 N, SD US",1.0,GHCND:US1SDMN0001,METERS,-97.79072,SD
1828.8,1893-01-01,1897-12-31,43.8694,"CROSS, SD US",1.0,GHCND:USC00392063,METERS,-103.3667,SD
963.8,1948-05-01,2026-03-01,44.04582,"RAPID CITY REGIONAL AIRPORT, SD US",0.9999,GHCND:USW00024090,METERS,-103.05442,SD
563.9,1998-07-01,2003-07-31,44.58056,"MILESVILLE 9 N, SD US",0.9995,GHCND:USC00395547,METERS,-101.74056,SD
1079.0,2024-04-29,2026-02-27,44.0463307,"RAPID CITY 4.8 WSW, SD US",0.9985,GHCND:US1SDPN0097,METERS,-103.3217468,SD
1076.9,1948-11-01,1958-06-30,43.13333,"RUMFORD, SD US",0.998,GHCND:USC00397367,METERS,-103.7,SD
521.0,1998-01-01,2026-02-28,45.54955,"MOBRIDGE MUNICIPAL AIRPORT, SD US",0.9974,GHCND:USW00094052,METERS,-100.40857,SD
,1950-01-09,1951-09-30,43.31667,"BOVEE, SD US",0.9968,GHCND:USC00390822,,-98.75,SD
363.0,1956-08-02,1959-06-30,42.95,"ALCESTER 9 SE, SD US",0.9962,GHCND:USC00390107,METERS,-96.51667,SD
905.9,1951-08-02,1975-08-31,44.56667,"UNION CENTER, SD US",0.9951,GHCND:USC00398494,METERS,-102.66667,SD
185.9,2012-04-08,2018-05-28,35.868298,"MURFREESBORO 1.6 NE, TN US",1.0,GHCND:US1TNRD0091,METERS,-86.373665,TN
205.4,2010-05-19,2014-02-22,36.167583,"LEBANON 4.0 SE, TN US",1.0,GHCND:US1TNWN0074,METERS,-86.272972,TN
163.1,2007-08-01,2008-03-17,35.963347,"SMYRNA 1.4 S, TN US",1.0,GHCND:US1TNRD0036,METERS,-86.512921,TN
298.7,2007-04-07,2007-12-02,35.73425,"MARYVILLE 0.9 SSW, TN US",1.0,GHCND:US1TNBT0003,METERS,-83.97755,TN
390.1,2000-08-01,2003-09-30,36.35667,"BEAN STATION 3 NW, TN US",1.0,GHCND:USC00400487,METERS,-83.35444,TN
563.9,1949-01-01,1954-05-31,35.95,"CROSSVILLE, TN US",1.0,GHCND:USC00402207,METERS,-85.03333,TN
92.0,1928-01-01,1942-05-31,36.38333,"TIPTONVILLE, TN US",1.0,GHCND:USC00409020,METERS,-89.48333,TN
488.0,1949-01-01,1962-03-31,35.0,"COPPERHILL SUBSTN, TN US",0.9996,GHCND:USC00402029,METERS,-84.38333,TN
274.3,1998-11-01,2026-02-26,36.023,"OAK RIDGE ASOS, TN US",0.9994,GHCND:USW00053868,METERS,-84.2337,TN
220.1,2007-07-22,2026-02-26,35.607219,"COLUMBIA 1.2 SSW, TN US",0.9994,GHCND:US1TNMY0008,METERS,-87.05921,TN
1171.7,2018-10-21,2026-02-27,34.83859,"HEREFORD 1.1 N, TX US",1.0,GHCND:US1TXDS0005,METERS,-102.40139,TX
298.1,1990-10-01,1993-04-30,29.91667,"CANYON DAM NUMBER 7, TX US",1.0,GHCND:USC00411438,METERS,-98.21667,TX
647.7,1962-07-01,1983-02-28,29.95,"NELSON RANCH, TX US",1.0,GHCND:USC00416257,METERS,-99.51667,TX
125.0,1965-06-01,1966-08-31,32.66667,"MINEOLA 2, TX US",1.0,GHCND:USC00415955,METERS,-95.48333,TX
,1941-12-01,1943-11-30,32.8,"MCCAULLEY NEAR SOIL CONSERVATION SERVICE NUMBER 3, TX US",1.0,GHCND:USC00415713,,-100.233333,TX
75.3,2019-10-15,2026-02-26,28.98407,"CUERO 7.7 S, TX US",0.9991,GHCND:US1TXDW0029,METERS,-97.26348,TX
185.9,1980-01-01,1983-01-31,28.96667,"PEARSALL 9 WNW, TX US",0.9991,GHCND:USC00416880,METERS,-99.21667,TX
584.9,2009-01-01,2026-02-15,30.166111,"INGRAM 10.2 NW, TX US",0.9986,GHCND:US1TXKR0030,METERS,-99.374722,TX
169.2,2023-09-24,2025-03-17,33.150991,"CORINTH 1.3 ENE, TX US",0.9982,GHCND:US1TXDN0132,METERS,-97.043529,TX
420.6,1997-09-01,2012-04-30,30.5013,"LLANO 18 S, TX US",0.9974,GHCND:USC00415276,METERS,-98.7452,TX
2689.9,2012-05-16,2026-03-01,38.48,"LASAL MOUNTAIN LOWER, UT US",1.0,GHCND:USS0009L01S,METERS,-109.29,UT
2971.5,2007-09-19,2026-03-01,38.07,"JONES CORRAL, UT US",1.0,GHCND:USS0012L20S,METERS,-112.17,UT
2545.1,2014-05-28,2026-03-01,37.7,"PANGUITCH LAKE RANGER STATION, UT US",1.0,GHCND:USS0012M07S,METERS,-112.65,UT
2712.7,1994-09-30,2026-03-01,37.52,"AGUA CANYON, UT US",1.0,GHCND:USS0012M26S,METERS,-112.27,UT
2257.3,2001-11-04,2026-03-01,41.79,"TEMPLE FORK, UT US",1.0,GHCND:USS0011H58S,METERS,-111.55,UT
2404.6,1980-09-29,2026-03-01,40.55,"ROCK CREEK, UT US",1.0,GHCND:USS0010J18S,METERS,-110.69,UT
2493.0,2013-08-26,2026-03-01,37.6,"SUU RANCH, UT US",1.0,GHCND:USS0012M17S,METERS,-112.92,UT
2579.8,2009-08-17,2026-03-01,40.55,"LAKEFORK NUMBER 3, UT US",1.0,GHCND:USS0010J12S,METERS,-110.35,UT
1994.6,1978-09-30,2026-03-01,41.41,"LITTLE BEAR, UT US",1.0,GHCND:USS0011H25S,METERS,-111.83,UT
2200.7,2010-06-16,2026-03-01,41.25,"KILFOIL CREEK, UT US",1.0,GHCND:USS0011H31S,METERS,-111.41,UT
346.7,1948-01-01,2026-03-01,37.31719,"ROANOKE BLACKSBURG REGIONAL AIRPORT, VA US",1.0,GHCND:USW00013741,METERS,-79.97369,VA
9.4,2024-02-01,2026-02-27,36.979426,"SMITHFIELD 0.5 WSW, VA US",1.0,GHCND:US1VAIW0024,METERS,-76.626846,VA
20.1,2013-04-28,2014-07-13,37.250773,"WILLIAMSBURG 3.3 WSW, VA US",1.0,GHCND:US1VAJC0028,METERS,-76.7610569,VA
766.6,1993-08-01,1996-11-30,37.55,"PAINT BANK 1 W, VA US",1.0,GHCND:USC00446470,METERS,-80.28333,VA
196.6,2011-04-01,2026-02-27,39.160666,"BERRYVILLE 0.9 NNW, VA US",0.9998,GHCND:US1VACK0002,METERS,-77.988475,VA
6.1,1954-08-17,1970-05-31,37.88333,"SUNNYBANK, VA US",0.9997,GHCND:USC00448224,METERS,-76.26667,VA
381.0,2004-02-01,2011-03-31,37.9408,"BROWNSBURG 2 W, VA US",0.9996,GHCND:USC00441099,METERS,-79.3517,VA
141.4,2013-11-18,2026-02-27,38.8875,"FALLS CHURCH 1.6 W, VA US",0.9993,GHCND:US1VAFX0064,METERS,-77.2041,VA
226.2,2007-01-04,2025-12-06,39.04222,"STRASBURG 3.7 N, VA US",0.9993,GHCND:US1VASH0002,METERS,-78.3506,VA
67.4,2021-01-06,2026-02-27,37.58769,"RICHMOND 5.3 NW, VA US",0.9989,GHCND:US1VAHR0037,METERS,-77.53901,VA
490.7,2024-08-01,2026-02-27,43.75217,"BARNARD 2.7 NW, VT US",1.0,GHCND:US1VTWR0036,METERS,-72.662911,VT
331.6,2016-08-03,2016-12-29,43.75343,"NORTH CHITTENDEN 1.4 NW, VT US",1.0,GHCND:US1VTRT0015,METERS,-72.997298,VT
156.4,2012-06-11,2012-12-05,45.0033769011498,"RICHFORD 0.8 NNW, VT US",1.0,GHCND:US1VTFR0008,METERS,-72.6820667088032,VT
424.9,2009-05-13,2010-11-06,44.549941,"STANNARD 1.9 WNW, VT US",1.0,GHCND:US1VTCL0009,METERS,-72.252014,VT
683.1,1966-05-01,1966-08-31,42.88333,"WOODFORD, VT US",1.0,GHCND:USC00439953,METERS,-73.03333,VT
146.0,1955-11-01,1956-06-30,43.33333,"NORTH SPRINGFIELD, VT US",1.0,GHCND:USC00435977,METERS,-72.51667,VT
457.2,2007-10-01,2026-02-19,44.6122,"SUTTON, VT US",0.9991,GHCND:USC00438169,METERS,-72.0481,VT
173.7,2010-05-01,2026-03-02,43.6027,"NORTH HARTLAND LAKE, VT US",0.999,GHCND:USC00435768,METERS,-72.3621,VT
371.9,1955-11-01,1970-04-30,43.53333,"PLYMOUTH UNION, VT US",0.9987,GHCND:USC00436446,METERS,-72.73333,VT
429.8,1974-06-01,1994-05-12,44.1,"NORTHFIELD 3 SSE, VT US",0.9986,GHCND:USC00435740,METERS,-72.61667,VT
652.3,2007-08-17,2026-03-01,46.1,"PEPPER CREEK, WA US",1.0,GHCND:USS0021C42S,METERS,-121.96,WA
1271.0,1999-07-13,2026-03-01,47.04,"BURNT MOUNTAIN, WA US",1.0,GHCND:USS0021B63S,METERS,-121.94,WA
762.0,2008-08-20,2026-03-01,45.9,"CALAMITY, WA US",1.0,GHCND:USS0022D01S,METERS,-122.22,WA
264.0,2023-07-01,2023-12-21,46.218263,"RICHLAND 5.2 S, WA US",1.0,GHCND:US1WABT0030,METERS,-119.295755,WA
97.5,2017-01-03,2017-08-31,47.047341,"MCCLEARY 0.6 SSE, WA US",1.0,GHCND:US1WAGH0051,METERS,-123.260446,WA
1222.2,1998-09-30,2026-03-01,47.87,"DUNGENESS, WA US",0.9997,GHCND:USS0023B16S,METERS,-123.08,WA
175.9,2012-10-26,2026-02-25,46.250598,"RICHLAND 3.4 SSW, WA US",0.9996,GHCND:US1WABT0015,METERS,-119.324279,WA
259.1,1955-09-01,1969-12-31,47.73333,"GROTTO, WA US",0.9996,GHCND:USC00453386,METERS,-121.41667,WA
1353.3,2014-10-01,2026-03-01,46.32,"PINTO ROCK, WA US",0.9995,GHCND:USS0021C44S,METERS,-121.94,WA
1633.7,2010-09-30,2026-03-01,48.95,"GOLD AXE CAMP, WA US",0.9993,GHCND:USS0018A26S,METERS,-118.99,WA
264.0,1931-01-01,1931-12-31,43.533333,"CAMBRIA, WI US",1.0,GHCND:USC00471265,METERS,-89.083333,WI
490.4,2006-09-01,2026-03-01,45.6222,"RHINELANDER WJFW TV 12, WI US",0.9996,GHCND:USC00477118,METERS,-89.41,WI
238.7,2004-09-01,2026-03-02,42.99417,"JEFFERSON WWTP, WI US",0.9992,GHCND:USC00474108,METERS,-88.80413,WI
320.6,2020-09-05,2026-02-23,42.997408,"FITCHBURG 1.1 NW, WI US",0.999,GHCND:US1WIDA0099,METERS,-89.440467,WI
326.1,2008-03-01,2026-03-02,45.08272,"JIM FALLS 3 NW, WI US",0.9989,GHCND:USC00474027,METERS,-91.33133,WI
211.8,2018-03-01,2026-02-27,43.7356,"SHEBOYGAN 0.7 SSW, WI US",0.9986,GHCND:US1WISB0019,METERS,-87.7349,WI
250.2,1998-10-14,2026-02-28,46.54676,"ASHLAND KENNEDY MEMORIAL AIRPORT, WI US",0.9981,GHCND:USW00094929,METERS,-90.91845,WI
224.9,2007-01-01,2011-04-30,44.268644,"KIMBERLY 0.3 ESE, WI US",0.9975,GHCND:US1WIOG0001,METERS,-88.335437,WI
338.3,2007-02-01,2026-03-01,42.99043,"MOUNT HOREB WWTP, WI US",0.9968,GHCND:USC00475674,METERS,-89.74187,WI
296.9,1869-01-01,1963-05-31,43.08333,"MADISON WEATHER BUREAU CITY, WI US",0.9967,GHCND:USC00474966,METERS,-89.4,WI
760.2,1963-05-15,2026-03-01,37.78359,"BECKLEY RALEIGH CO AIRPORT, WV US",1.0,GHCND:USW00003872,METERS,-81.12283,WV
262.1,2024-08-16,2026-02-27,38.322861,"SOUTH CHARLESTON 2.6 SSW, WV US",1.0,GHCND:US1WVKN0052,METERS,-81.727739,WV
273.7,2015-05-04,2018-09-17,39.414162,"KEYSER 2.0 SSW, WV US",1.0,GHCND:US1WVML0003,METERS,-79.002801,WV
747.1,1961-07-01,1962-11-30,37.88333,"SMOOT, WV US",1.0,GHCND:USC00465886,METERS,-80.66667,WV
235.0,1961-01-01,1961-07-31,38.23333,"JODIE, WV US",1.0,GHCND:USC00464631,METERS,-81.13333,WV
,1906-01-01,1907-09-30,39.666667,"MOORESVILLE, WV US",1.0,GHCND:USC00466178,,-80.1,WV
781.2,1897-08-01,1900-12-31,39.2,"EAST BANK, WV US",1.0,GHCND:USC00462590,METERS,-81.616667,WV
290.8,2019-11-05,2026-02-27,38.344196,"CHARLESTON 2.6 W, WV US",0.9996,GHCND:US1WVKN0033,METERS,-81.678526,WV
192.0,1951-06-01,1957-02-28,38.91667,"POINT PLEASANT 6 NNE, WV US",0.9995,GHCND:USC00467110,METERS,-82.06667,WV
299.3,2023-07-01,2026-01-05,38.33717,"CHARLESTON 1.7 WSW, WV US",0.9989,GHCND:US1WVKN0045,METERS,-81.65617,WV
2566.4,1980-09-30,2026-03-01,44.48,"SYLVAN LAKE, WY US",1.0,GHCND:USS0010E06S,METERS,-110.16,WY
2935.2,1983-09-30,2026-03-01,43.28,"COLD SPRINGS, WY US",1.0,GHCND:USS0009F25S,METERS,-109.45,WY
2499.4,1980-07-31,2026-03-01,43.89,"BEAR TRAP MEADOW, WY US",1.0,GHCND:USS0007F01S,METERS,-107.06,WY
3005.3,1978-09-30,2026-03-01,44.4,"CLOUD PEAK RESERVOIR, WY US",1.0,GHCND:USS0007E36S,METERS,-107.06,WY
1859.0,2019-03-16,2020-11-21,41.16605,"CHEYENNE 2.1 NW, WY US",1.0,GHCND:US1WYLM0209,METERS,-104.821811,WY
,2015-04-01,2018-11-28,41.45803,"ROCK RIVER 18.9 S, WY US",1.0,GHCND:US1WYAB0134,,-106.0029,WY
2058.3,2007-04-04,2007-07-13,41.771767,"MEDICINE BOW 8.8 S, WY US",1.0,GHCND:US1WYCR0007,METERS,-106.2066,WY
2346.4,1963-10-01,1988-06-30,42.95,"MERNA, WY US",1.0,GHCND:USC00486165,METERS,-110.36667,WY
2012.9,1961-01-11,1961-11-30,42.68333,"ALCOVA 29 WNW, WY US",1.0,GHCND:USC00480094,METERS,-107.25,WY
1271.9,1952-08-09,1952-12-31,44.51667,"BEULAH 8 WSW, WY US",1.0,GHCND:USC00480640,METERS,-104.26667,WY
